[
 {
  "name": "Little Kingdom Child Care",
  "address": "520 Balour Dr, Encinitas, CA 92024, USA",
  "lat": 33.0446147,
  "lng": -117.2691626
 },
 {
  "name": "The Academy at Bright Horizons",
  "address": "2232 Encinitas Blvd, Encinitas, CA 92024, USA",
  "lat": 33.037997,
  "lng": -117.239555
 },
 {
  "name": "Bright Horizons at Encinitas",
  "address": "1430 Amargosa Dr, Encinitas, CA 92024, USA",
  "lat": 33.0666396,
  "lng": -117.2547626
 },
 {
  "name": "Daddy/Daughter Infant Daycare",
  "address": "306 Oakbranch Dr, Encinitas, CA 92024, USA",
  "lat": 33.041263,
  "lng": -117.256323
 },
 {
  "name": "A Children's Garden",
  "address": "1421 Burgundy Rd, Encinitas, CA 92024, USA",
  "lat": 33.074877,
  "lng": -117.289285
 },
 {
  "name": "Callahan Family Childcare",
  "address": "1912 Circle Park Ln, Encinitas, CA 92024, USA",
  "lat": 33.0555678,
  "lng": -117.2466692
 },
 {
  "name": "Encinitas Child Devmnt Center",
  "address": "121 N El Camino Real, Encinitas, CA 92024, USA",
  "lat": 33.0481083,
  "lng": -117.2561066
 },
 {
  "name": "LePort Montessori Encinitas",
  "address": "520 Balour Dr, Encinitas, CA 92024, USA",
  "lat": 33.044578,
  "lng": -117.2691138
 },
 {
  "name": "Creating Gifted Children",
  "address": "1404 Avenida De Las Adelsas, Encinitas, CA 92024, USA",
  "lat": 33.0366881,
  "lng": -117.2577241
 },
 {
  "name": "Tracy's Tiny Tots",
  "address": "1134 Arcadia Rd, Encinitas, CA 92024, USA",
  "lat": 33.037412,
  "lng": -117.278602
 },
 {
  "name": "Central Montessori School",
  "address": "286 N El Camino Real, Encinitas, CA 92024, USA",
  "lat": 33.053729,
  "lng": -117.262918
 },
 {
  "name": "Encinitas Shining Star Preschool & Infant Center for the arts.",
  "address": "511 Encinitas Blvd # 114, Encinitas, CA 92024, USA",
  "lat": 33.045958,
  "lng": -117.281104
 },
 {
  "name": "Encinitas Country Day School",
  "address": "2155 Encinitas Blvd, Encinitas, CA 92024, USA",
  "lat": 33.0378704,
  "lng": -117.2409885
 },
 {
  "name": "Bethlehem Lutheran Church",
  "address": "925 Balour Dr, Encinitas, CA 92024, USA",
  "lat": 33.0403694,
  "lng": -117.2678321
 },
 {
  "name": "Olivenhain Country Preschool",
  "address": "448 Rancho Santa Fe Rd, Encinitas, CA 92024, USA",
  "lat": 33.0451565,
  "lng": -117.2351864
 },
 {
  "name": "Angel Academy Montessori Preschool and Day Care",
  "address": "7733 Lucia Ct, Carlsbad, CA 92009, USA",
  "lat": 33.083241,
  "lng": -117.255823
 },
 {
  "name": "Learning Tree Preschool",
  "address": "240 Birmingham Dr, Cardiff, CA 92007, USA",
  "lat": 33.02417,
  "lng": -117.281436
 },
 {
  "name": "A Children's Garden",
  "address": "2241 Whisper Wind Ln, Encinitas, CA 92024, USA",
  "lat": 33.0457796,
  "lng": -117.2357588
 },
 {
  "name": "Montessori Children's House",
  "address": "220 Calle De Madera, Encinitas, CA 92024, USA",
  "lat": 33.0627775,
  "lng": -117.2988233
 },
 {
  "name": "Children's Atelier Center",
  "address": "1356, 1508 Windsor Rd, Cardiff, CA 92007, United States",
  "lat": 33.0314217,
  "lng": -117.2740524
 },
 {
  "name": "Kids By the Sea",
  "address": "920 Balour Dr, Encinitas, CA 92024, USA",
  "lat": 33.040439,
  "lng": -117.268697
 },
 {
  "name": "Leucadia Children's School Inc.",
  "address": "1337 N Vulcan Ave, Encinitas, CA 92024, USA",
  "lat": 33.071449,
  "lng": -117.30355
 },
 {
  "name": "Cardiff Christian Daycare",
  "address": "1430 Big Canyon Terrace, Cardiff, CA 92007, USA",
  "lat": 33.031471,
  "lng": -117.268733
 },
 {
  "name": "Shantivanam Children's Community",
  "address": "229 Cerro St, Encinitas, CA 92024, USA",
  "lat": 33.0391911,
  "lng": -117.2532157
 },
 {
  "name": "Creative Expressions Preschool Encinitas",
  "address": "734 Edelweiss Ln, Encinitas, CA 92024, USA",
  "lat": 33.0503198,
  "lng": -117.2302926
 },
 {
  "name": "Aloha Family Daycare",
  "address": "7217 Manzanita St, Carlsbad, CA 92011, USA",
  "lat": 33.09633,
  "lng": -117.269302
 },
 {
  "name": "Loving Nannies-Premier Nanny and Babysitter Agency in San Diego",
  "address": "1639 Haydn Dr, Cardiff, CA 92007, USA",
  "lat": 33.0285568,
  "lng": -117.2858175
 },
 {
  "name": "Bethlehem Lutheran Preschool",
  "address": "925 Balour Dr, Encinitas, CA 92024, USA",
  "lat": 33.0403694,
  "lng": -117.2678321
 },
 {
  "name": "Living Roots Preschool",
  "address": "203 Fraxinella St, Encinitas, CA 92024, USA",
  "lat": 33.050828,
  "lng": -117.272842
 },
 {
  "name": "Magdalena Ecke Family YMCA",
  "address": "200 Saxony Rd, Encinitas, CA 92024, USA",
  "lat": 33.0520859,
  "lng": -117.2862749
 },
 {
  "name": "St Andrew's Preschool",
  "address": "890 Balour Dr, Encinitas, CA 92024, USA",
  "lat": 33.0413449,
  "lng": -117.2687376
 },
 {
  "name": "Fara's Preschool/Home Daycare",
  "address": "6750 Caurina Ct, Carlsbad, CA 92011, USA",
  "lat": 33.1059022,
  "lng": -117.2861193
 },
 {
  "name": "Oasis Community School",
  "address": "216 La Mesa Ave, Encinitas, CA 92024, USA",
  "lat": 33.053058,
  "lng": -117.298934
 },
 {
  "name": "St. Mark Lutheran Preschool",
  "address": "556 S El Camino Real, Encinitas, CA 92024, USA",
  "lat": 33.0364603,
  "lng": -117.2587544
 }
]
