[
 {
  "name": "Small Wonder Family Child Care",
  "address": "20064 Fallen Leaf Dr, Perris, CA 92570, USA",
  "lat": 33.8292395,
  "lng": -117.2582709
 },
 {
  "name": "Perris KinderCare",
  "address": "610 E Nuevo Rd, Perris, CA 92571, USA",
  "lat": 33.801566,
  "lng": -117.2125
 },
 {
  "name": "Park Towne Child Care",
  "address": "511 Dale St, Perris, CA 92571, USA",
  "lat": 33.7899178,
  "lng": -117.2147538
 },
 {
  "name": "The Learning Clubhouse",
  "address": "3016 Wollyleaf Ct, Perris, CA 92571, USA",
  "lat": 33.8274495,
  "lng": -117.1933599
 },
 {
  "name": "Tiffany's Tinker Tots Day Care",
  "address": "1051 Harrier St, Perris, CA 92571, USA",
  "lat": 33.8296883,
  "lng": -117.2027378
 },
 {
  "name": "Green Tree Learning Childcare",
  "address": "383 Monument Pkwy, Perris, CA 92570, USA",
  "lat": 33.737915,
  "lng": -117.239403
 },
 {
  "name": "USA Kids",
  "address": "25953 Calle Ensenada, Moreno Valley, CA 92551, USA",
  "lat": 33.863874,
  "lng": -117.211097
 },
 {
  "name": "Kidz First Childcare",
  "address": "Solandra St, Perris, CA 92571, USA",
  "lat": 33.8394536,
  "lng": -117.2099939
 },
 {
  "name": "BIZZY-LITTLE-BEES DAYCARE",
  "address": "549 Redding Way, Perris, CA 92570, USA",
  "lat": 33.768216,
  "lng": -117.235577
 },
 {
  "name": "Romero Family Christian Child Care",
  "address": "Addison Way, Perris, CA 92571, USA",
  "lat": 33.802187,
  "lng": -117.197685
 },
 {
  "name": "Williams Itty Bitty Daycare",
  "address": "23327 Mountain Ave, Perris, CA 92570, USA",
  "lat": 33.7642979,
  "lng": -117.252634
 },
 {
  "name": "Renu Hope Foundation",
  "address": "1675 N Perris Blvd # H, Perris, CA 92571, USA",
  "lat": 33.8030719,
  "lng": -117.2256186
 },
 {
  "name": "Frutos Family Child Care",
  "address": "2084 Cottage Ct, Perris, CA 92571, USA",
  "lat": 33.8310505,
  "lng": -117.1815097
 },
 {
  "name": "Childtime of Moreno Valley",
  "address": "14700 Perris Blvd, Moreno Valley, CA 92553, USA",
  "lat": 33.907,
  "lng": -117.226
 },
 {
  "name": "Harper Family Child Care",
  "address": "24935 Theda St, Perris, CA 92570, USA",
  "lat": 33.75824900000001,
  "lng": -117.275787
 },
 {
  "name": "Tiny Tigers Child Care",
  "address": "3066 Bradley Rd, Perris, CA 92571, USA",
  "lat": 33.828832,
  "lng": -117.191565
 },
 {
  "name": "Bright beginnings daycare",
  "address": "2872 Magellan Ln, Perris, CA 92571, USA",
  "lat": 33.8251829,
  "lng": -117.2237959
 },
 {
  "name": "Hickenbottom Family Day Care",
  "address": "1258 Indigo Way, Perris, CA 92571, USA",
  "lat": 33.833152,
  "lng": -117.1982272
 },
 {
  "name": "Renu Hope Foundation",
  "address": "175 E Nuevo Rd, Perris, CA 92571, USA",
  "lat": 33.800754,
  "lng": -117.2236441
 },
 {
  "name": "Moreno Valley KinderCare",
  "address": "11961 Perris Blvd, Moreno Valley, CA 92557, USA",
  "lat": 33.947502,
  "lng": -117.22711
 },
 {
  "name": "Montes Family Child Care",
  "address": "2145 Cottage Ct, Perris, CA 92571, USA",
  "lat": 33.8307172,
  "lng": -117.1805101
 },
 {
  "name": "Moses Family Daycare",
  "address": "17087 Cleveland Bay Way, Moreno Valley, CA 92555, USA",
  "lat": 33.874117,
  "lng": -117.208063
 },
 {
  "name": "Perris Early Head Start",
  "address": "148 Avocado Ave, Perris, CA 92571, USA",
  "lat": 33.810693,
  "lng": -117.222571
 },
 {
  "name": "Temple Christian School",
  "address": "745 N Perris Blvd, Perris, CA 92571, USA",
  "lat": 33.7929604,
  "lng": -117.2256436
 },
 {
  "name": "Creative Minds Daycare",
  "address": "3066 Snowdrop Ct, Perris, CA 92571, USA",
  "lat": 33.829152,
  "lng": -117.1843774
 },
 {
  "name": "Pixie Dust Child Care",
  "address": "16764 Colt Way, Moreno Valley, CA 92555, USA",
  "lat": 33.877003,
  "lng": -117.2076452
 },
 {
  "name": "Rob Reiner Children & Families Center",
  "address": "2221 S A St, Perris, CA 92570, USA",
  "lat": 33.7587655,
  "lng": -117.2344049
 },
 {
  "name": "Look at Me Learn Child Care",
  "address": "23380 Canyon Lake Dr N, Canyon Lake, CA 92587, USA",
  "lat": 33.684408,
  "lng": -117.251569
 },
 {
  "name": "Bright Minds Childcare Day Care Montessori",
  "address": "24802 Sunset Vista Ave, Menifee, CA 92584, USA",
  "lat": 33.696391,
  "lng": -117.226763
 },
 {
  "name": "Learning Tree Preschool",
  "address": "26704 Murrieta Rd, Sun City, CA 92585, USA",
  "lat": 33.7324338,
  "lng": -117.2057493
 },
 {
  "name": "Perris Elementary School",
  "address": "500 S A St, Perris, CA 92570, USA",
  "lat": 33.7807172,
  "lng": -117.2357818
 },
 {
  "name": "Bramwell Day Care",
  "address": "24317 Dyna Pl, Moreno Valley, CA 92551, USA",
  "lat": 33.89679,
  "lng": -117.238109
 },
 {
  "name": "Ortega Family child care home",
  "address": "15490 Herne Ct, Moreno Valley, CA 92551, USA",
  "lat": 33.8974199,
  "lng": -117.23401
 },
 {
  "name": "Angel Wings Child Care",
  "address": "Moreno Valley, CA 92555, USA",
  "lat": 33.8958623,
  "lng": -117.208785
 },
 {
  "name": "State Preschool Program",
  "address": "2221 S A St, Perris, CA 92570, USA",
  "lat": 33.7588409,
  "lng": -117.2347631
 },
 {
  "name": "Little Bugz Child Care",
  "address": "29912 Lamprey St, Sun City, CA 92586, USA",
  "lat": 33.686424,
  "lng": -117.1936015
 },
 {
  "name": "Tot Spot",
  "address": "25808 Boulder Rock Pl, Sun City, CA 92585, USA",
  "lat": 33.7265432,
  "lng": -117.2097815
 },
 {
  "name": "Torres Family Daycare",
  "address": "28687 Acanthus Ct, Menifee, CA 92584, USA",
  "lat": 33.7042926,
  "lng": -117.1461676
 },
 {
  "name": "Hunny Bees Family Child Care",
  "address": "19933 San Luis Rey Ln, Riverside, CA 92508, USA",
  "lat": 33.8832427,
  "lng": -117.3151241
 },
 {
  "name": "Ms. Honey 24Hr Childcare 7 Days a Week",
  "address": "24154 Stonebridge Ct, Moreno Valley, CA 92551, USA",
  "lat": 33.8979885,
  "lng": -117.241125
 },
 {
  "name": "Jan Peterson Child Development Center",
  "address": "26895 Brodiaea Ave, Moreno Valley, CA 92555, USA",
  "lat": 33.9130715,
  "lng": -117.1929768
 },
 {
  "name": "Tot Spot Childcare",
  "address": "25687 Turfwood St, Sun City, CA 92585, USA",
  "lat": 33.7268753,
  "lng": -117.2118717
 },
 {
  "name": "Child Development Center",
  "address": "25625 Briggs Rd, Sun City, CA 92585, USA",
  "lat": 33.7480334,
  "lng": -117.1371275
 },
 {
  "name": "Krystal's Family Daycare",
  "address": "Bradley Rd, Menifee, CA 92584, USA",
  "lat": 33.679597,
  "lng": -117.188642
 },
 {
  "name": "Misfit Manor Daycare",
  "address": "30524 Wyndham Ct, Menifee, CA 92584, USA",
  "lat": 33.677476,
  "lng": -117.191471
 },
 {
  "name": "Happy Bees Day Care Academy",
  "address": "28658 Woodchester Way, Menifee, CA 92584, USA",
  "lat": 33.704622,
  "lng": -117.172985
 },
 {
  "name": "Rivera Family Child Care",
  "address": "25553 El Greco Dr, Moreno Valley, CA 92553, USA",
  "lat": 33.904544,
  "lng": -117.217884
 },
 {
  "name": "Bizzy Bee Childcare",
  "address": "3541 Whieldon Dr, Perris, CA 92571, USA",
  "lat": 33.83438,
  "lng": -117.183701
 },
 {
  "name": "Child Development Center Inc",
  "address": "29282 Menifee Rd, Menifee, CA 92584, USA",
  "lat": 33.6975758,
  "lng": -117.1533418
 },
 {
  "name": "Monkey House Daycare",
  "address": "53220 Ambridge St, Lake Elsinore, CA 92532, USA",
  "lat": 33.7112624,
  "lng": -117.3028114
 },
 {
  "name": "Childology Family Child Care",
  "address": "4628, 15517 Patricia St, Moreno Valley, CA 92551, United States",
  "lat": 33.8953456,
  "lng": -117.2216161
 },
 {
  "name": "El Potrero Preschool",
  "address": "16820 Via Pamplona, Moreno Valley, CA 92551, USA",
  "lat": 33.8758907,
  "lng": -117.2150898
 },
 {
  "name": "Alex's ABC Family CCS",
  "address": "3074 Jacinta Dr, Perris, CA 92571, USA",
  "lat": 33.8292829,
  "lng": -117.185386
 },
 {
  "name": "HAPPY HEARTS FAMILY DAY CARE.",
  "address": "3100 Goshawk Lane, Perris, CA 92571, USA",
  "lat": 33.827561,
  "lng": -117.20626
 },
 {
  "name": "Shepherd-Valley Preschool",
  "address": "11650 Perris Blvd, Moreno Valley, CA 92557, USA",
  "lat": 33.9516599,
  "lng": -117.225269
 }
]
