[
 {
  "name": "ELCA Preschools | San Diego Mission Valley",
  "address": "4050 Taylor St, San Diego, CA 92110, USA",
  "lat": 32.757285,
  "lng": -117.199024
 },
 {
  "name": "Ridge City Preschool & Daycare",
  "address": "6866 Linda Vista Rd, San Diego, CA 92111, USA",
  "lat": 32.7823509,
  "lng": -117.1729981
 },
 {
  "name": "Bella Daycare",
  "address": "2004 Felspar St, San Diego, CA 92109, USA",
  "lat": 32.801028,
  "lng": -117.231771
 },
 {
  "name": "Bright Horizons at Tierrasanta",
  "address": "6090 Santo Rd, San Diego, CA 92124, USA",
  "lat": 32.8407095,
  "lng": -117.1008401
 },
 {
  "name": "WEE ARE WISE DAYCARE",
  "address": "3863 Hatton St, San Diego, CA 92111, USA",
  "lat": 32.8140209,
  "lng": -117.165237
 },
 {
  "name": "Honey Bear Preschool & Child Care Center",
  "address": "4426 Mentone St, San Diego, CA 92107, USA",
  "lat": 32.751436,
  "lng": -117.232554
 },
 {
  "name": "Together We Grow",
  "address": "5055 Viewridge Ave, San Diego, CA 92123, USA",
  "lat": 32.8284799,
  "lng": -117.1211322
 },
 {
  "name": "ELCA Preschools | San Diego Mira Mesa",
  "address": "9585 Candida St, San Diego, CA 92126, USA",
  "lat": 32.8967931,
  "lng": -117.1212662
 },
 {
  "name": "Childtime of San Diego",
  "address": "8111 New Salem St, San Diego, CA 92126, USA",
  "lat": 32.9151548,
  "lng": -117.1491317
 },
 {
  "name": "Little Sprouts Academy",
  "address": "3844 Adams Ave, San Diego, CA 92116, USA",
  "lat": 32.763528,
  "lng": -117.111203
 },
 {
  "name": "Natura Early Child Development",
  "address": "4596 Louisiana St, San Diego, CA 92116, USA",
  "lat": 32.760759,
  "lng": -117.140508
 },
 {
  "name": "YMCA Childcare Resource Service",
  "address": "3333 Camino del Rio S, San Diego, CA 92108, USA",
  "lat": 32.7757154,
  "lng": -117.1214012
 },
 {
  "name": "Kids on Broadway",
  "address": "475 W Broadway, San Diego, CA 92101, USA",
  "lat": 32.715401,
  "lng": -117.167047
 },
 {
  "name": "Little Sprouts Academy",
  "address": "6690 Mission Gorge Rd, San Diego, CA 92120, USA",
  "lat": 32.7942102,
  "lng": -117.0976081
 },
 {
  "name": "Safe & Sound Family Daycare",
  "address": "4195 Kansas St, San Diego, CA 92104, USA",
  "lat": 32.7539224,
  "lng": -117.1312091
 },
 {
  "name": "Child Care Services Department",
  "address": "3180 University Ave # 317, San Diego, CA 92104, USA",
  "lat": 32.748803,
  "lng": -117.125566
 },
 {
  "name": "The Vine Infant Center",
  "address": "6705 Linda Vista Rd, San Diego, CA 92111, USA",
  "lat": 32.7754208,
  "lng": -117.1733764
 },
 {
  "name": "Martha's Daycare",
  "address": "12000 Cijon St, San Diego, CA 92129, USA",
  "lat": 32.94861,
  "lng": -117.109809
 },
 {
  "name": "Tanita Family Day Care",
  "address": "2507 Chatsworth Blvd, San Diego, CA 92106, USA",
  "lat": 32.741981,
  "lng": -117.223306
 },
 {
  "name": "The Vine Learning Center",
  "address": "2130 Ulric St, San Diego, CA 92111, USA",
  "lat": 32.7827234,
  "lng": -117.1704487
 },
 {
  "name": "Mission Nazarene Child Care Center",
  "address": "4752 Mission Gorge Pl, San Diego, CA 92120, USA",
  "lat": 32.7819664,
  "lng": -117.0918584
 },
 {
  "name": "Bright Horizons Family Center at Del Mar",
  "address": "3720 Arroyo Sorrento Rd, San Diego, CA 92130, USA",
  "lat": 32.9262014,
  "lng": -117.2351387
 },
 {
  "name": "Kids Academy",
  "address": "4555 Mt Abernathy Ave, San Diego, CA 92117, USA",
  "lat": 32.826406,
  "lng": -117.172506
 },
 {
  "name": "Primary Daycare",
  "address": "1623 32nd St, San Diego, CA 92102, USA",
  "lat": 32.72285,
  "lng": -117.125173
 },
 {
  "name": "Lyrics Day Care",
  "address": "1787 Pentuckett Ave, San Diego, CA 92104, USA",
  "lat": 32.724237,
  "lng": -117.1169706
 },
 {
  "name": "BeepBop Daycare",
  "address": "15835 Windrose Ct, San Diego, CA 92127, USA",
  "lat": 33.0049549,
  "lng": -117.0885891
 },
 {
  "name": "Sandra's daycare",
  "address": "7278 Werner St, San Diego, CA 92122, USA",
  "lat": 32.8592651,
  "lng": -117.1888088
 },
 {
  "name": "University City KinderCare",
  "address": "6150 Agee St, San Diego, CA 92122, USA",
  "lat": 32.852245,
  "lng": -117.201807
 },
 {
  "name": "Ranne's Daycare",
  "address": "11141 Corte Mar De Cristal, San Diego, CA 92130, USA",
  "lat": 32.918841,
  "lng": -117.224833
 },
 {
  "name": "Gluck Child Care Center",
  "address": "10660 John J Hopkins Dr, San Diego, CA 92121, USA",
  "lat": 32.8955655,
  "lng": -117.240378
 },
 {
  "name": "Lopez Family Day Care",
  "address": "4054 Marcwade Dr, San Diego, CA 92154, USA",
  "lat": 32.573335,
  "lng": -117.047143
 },
 {
  "name": "La Petite Academy of San Diego",
  "address": "12668 Sabre Springs Pkwy, San Diego, CA 92128, USA",
  "lat": 32.949491,
  "lng": -117.0971349
 },
 {
  "name": "La Petite Academy of San Diego",
  "address": "10050 Carmel Mountain Rd, San Diego, CA 92129, USA",
  "lat": 32.9613354,
  "lng": -117.1132343
 },
 {
  "name": "Wee Care Preschool",
  "address": "3580 Mt Acadia Blvd, San Diego, CA 92111, USA",
  "lat": 32.8074117,
  "lng": -117.1837126
 },
 {
  "name": "Frost Daycare",
  "address": "7215 Whipple Ave, San Diego, CA 92122, USA",
  "lat": 32.8584029,
  "lng": -117.1884872
 },
 {
  "name": "Home Child Care",
  "address": "14504 Penasquitos Dr, San Diego, CA 92129, USA",
  "lat": 32.978981,
  "lng": -117.092858
 },
 {
  "name": "Del Mar Highlands KinderCare",
  "address": "12863 El Camino Real, San Diego, CA 92130, USA",
  "lat": 32.9496271,
  "lng": -117.2335991
 },
 {
  "name": "Lu's Daycare Home in Serra Mesa",
  "address": "2066 Finch Ln, San Diego, CA 92123, USA",
  "lat": 32.782064,
  "lng": -117.158595
 },
 {
  "name": "Wildflowers Home Daycare",
  "address": "4617 Shoshoni Ave, San Diego, CA 92117, USA",
  "lat": 32.830103,
  "lng": -117.1929153
 },
 {
  "name": "Orr Family Daycare & Preschool",
  "address": "4940 Gallatin Way, San Diego, CA 92117, USA",
  "lat": 32.836783,
  "lng": -117.220726
 },
 {
  "name": "A Sunshine Day Care",
  "address": "5052 Genesee Ave, San Diego, CA 92117, USA",
  "lat": 32.8372672,
  "lng": -117.1960112
 },
 {
  "name": "Martinez Family Day Care",
  "address": "3006 Plato Dr, San Diego, CA 92139, USA",
  "lat": 32.669086,
  "lng": -117.048417
 },
 {
  "name": "Neighborhood House Association",
  "address": "2717 University Ave, San Diego, CA 92104, USA",
  "lat": 32.7481363,
  "lng": -117.1343664
 },
 {
  "name": "Neighborhood House Association",
  "address": "4111 Home Ave # F, San Diego, CA 92105, USA",
  "lat": 32.723129,
  "lng": -117.10681
 },
 {
  "name": "Eco Baby Childcare",
  "address": "4626 Shoshoni Ave, San Diego, CA 92117, USA",
  "lat": 32.829816,
  "lng": -117.193495
 },
 {
  "name": "New Life Head Start",
  "address": "766 28th St, San Diego, CA 92102, USA",
  "lat": 32.7138462,
  "lng": -117.1345572
 },
 {
  "name": "Baldwin Academy",
  "address": "1752 Hornblend St, San Diego, CA 92109, USA",
  "lat": 32.7997396,
  "lng": -117.2375415
 },
 {
  "name": "Scripps Exploring Academy",
  "address": "9855 Erma Rd #128, San Diego, CA 92131, USA",
  "lat": 32.918763,
  "lng": -117.114268
 },
 {
  "name": "Grow Smart Children's Academy",
  "address": "6271 Jackson Dr, San Diego, CA 92119, USA",
  "lat": 32.79287,
  "lng": -117.017983
 },
 {
  "name": "Little Bear Home Day Care",
  "address": "16211 Via Embeleso, San Diego, CA 92128, USA",
  "lat": 33.006753,
  "lng": -117.073035
 },
 {
  "name": "FAA Merry-Go-Around Center",
  "address": "9175 Kearny Villa Rd, San Diego, CA 92126, USA",
  "lat": 32.8914731,
  "lng": -117.116079
 },
 {
  "name": "Children of the Rainbow",
  "address": "4890 Logan Ave, San Diego, CA 92113, USA",
  "lat": 32.697112,
  "lng": -117.089604
 },
 {
  "name": "Neighborhood House Loma Portal",
  "address": "2905 Cadiz St, San Diego, CA 92110, USA",
  "lat": 32.744206,
  "lng": -117.211077
 },
 {
  "name": "Mi Pequena Casita Daycare",
  "address": "1008 S 26th St, San Diego, CA 92113, USA",
  "lat": 32.69558,
  "lng": -117.138312
 },
 {
  "name": "Simone's Family Childcare",
  "address": "6608 Thornwood St, San Diego, CA 92111, USA",
  "lat": 32.811362,
  "lng": -117.1724559
 },
 {
  "name": "Child Development Center",
  "address": "6205 College Grove Way, San Diego, CA 92115, USA",
  "lat": 32.739151,
  "lng": -117.059965
 },
 {
  "name": "Camp Run-A-Mutt Kearny Mesa",
  "address": "7888 Othello Ave, San Diego, CA 92111, USA",
  "lat": 32.8175417,
  "lng": -117.1538248
 },
 {
  "name": "Bright Horizons",
  "address": "9255 Towne Centre Dr # 150, San Diego, CA 92121, USA",
  "lat": 32.8758655,
  "lng": -117.2068937
 },
 {
  "name": "Munchkin Palace ChildCare",
  "address": "5076 Surf Shoal Point, San Diego, CA 92154, USA",
  "lat": 32.5735958,
  "lng": -117.0233023
 },
 {
  "name": "Katia's Family Child Care",
  "address": "974 Manor Way, San Diego, CA 92106, USA",
  "lat": 32.722605,
  "lng": -117.244179
 }
]
