[
 {
  "name": "Chula Vista Community Park",
  "address": "1060 Eastlake Pkwy, Chula Vista, CA 91915, USA",
  "lat": 32.6440785,
  "lng": -116.9676274
 },
 {
  "name": "Kid Ventures",
  "address": "851 Showroom Pl, Chula Vista, CA 91914, USA",
  "lat": 32.6532292,
  "lng": -116.9539737
 },
 {
  "name": "Bayside Park",
  "address": "999 Bayside Pkwy, Chula Vista, CA 91910, USA",
  "lat": 32.626976,
  "lng": -117.106682
 },
 {
  "name": "Los Ninos Park",
  "address": "1589 Max Ave, Chula Vista, CA 91911, USA",
  "lat": 32.5992252,
  "lng": -117.0442848
 },
 {
  "name": "Hilltop Park",
  "address": "780 Hilltop Dr, Chula Vista, CA 91911, USA",
  "lat": 32.6287737,
  "lng": -117.0628587
 },
 {
  "name": "Chula Vista",
  "address": "700 Buena Vista Way, Chula Vista, CA 91910, USA",
  "lat": 32.6436941,
  "lng": -117.006746
 },
 {
  "name": "Chula Vista Marina View Park",
  "address": "900 Marina Pkwy, Chula Vista, CA 91910, USA",
  "lat": 32.6210376,
  "lng": -117.0962519
 },
 {
  "name": "Valle Lindo Park",
  "address": "545 Sequoia St, Chula Vista, CA 91911, USA",
  "lat": 32.6022926,
  "lng": -117.0310431
 },
 {
  "name": "Eucalyptus Park",
  "address": "436 C St, Chula Vista, CA 91910, USA",
  "lat": 32.6500446,
  "lng": -117.0884902
 },
 {
  "name": "Explorer Park",
  "address": "S Rancho Del Rey Pkwy, Chula Vista, CA 91910, USA",
  "lat": 32.6409264,
  "lng": -117.0243605
 },
 {
  "name": "Otay Park",
  "address": "1613 Albany Ave, Chula Vista, CA 91911, USA",
  "lat": 32.5974293,
  "lng": -117.0569741
 },
 {
  "name": "Mountain Hawk Park",
  "address": "1475 Lake Crest Dr, Chula Vista, CA 91915, USA",
  "lat": 32.6355741,
  "lng": -116.9342715
 },
 {
  "name": "Mount San Miguel Park",
  "address": "2335 Paseo Veracruz, Chula Vista, CA 91914, USA",
  "lat": 32.6709665,
  "lng": -116.9737548
 },
 {
  "name": "Discovery Park",
  "address": "700 Buena Vista Way, Chula Vista, CA 91910, USA",
  "lat": 32.6444683,
  "lng": -117.0071038
 },
 {
  "name": "Lauderbach Park",
  "address": "Chula Vista, CA 91911, USA",
  "lat": 32.6085597,
  "lng": -117.068927
 },
 {
  "name": "Voyager Park",
  "address": "1228-1308 E J St, Chula Vista, CA 91910, USA",
  "lat": 32.6301895,
  "lng": -117.0062121
 },
 {
  "name": "Rohr Park",
  "address": "4548 Sweetwater Rd, Bonita, CA 91902, USA",
  "lat": 32.6662475,
  "lng": -117.0320223
 },
 {
  "name": "Otay Lakes County Park",
  "address": "2270 Wueste Rd, Chula Vista, CA 91915, USA",
  "lat": 32.6077475,
  "lng": -116.9301188
 },
 {
  "name": "Cottonwood Park",
  "address": "1778 E Palomar St, Chula Vista, CA 91913, USA",
  "lat": 32.6318069,
  "lng": -116.9825821
 },
 {
  "name": "Horizon Park",
  "address": "970 E Palomar St, Chula Vista, CA 91913, USA",
  "lat": 32.6173874,
  "lng": -117.0134751
 },
 {
  "name": "Chula Vista Friendship Park",
  "address": "Chula Vista, CA 91910, USA",
  "lat": 32.6417717,
  "lng": -117.0836373
 },
 {
  "name": "Sunbow Park",
  "address": "500 E Naples St, Chula Vista, CA 91911, USA",
  "lat": 32.6211821,
  "lng": -117.0314109
 },
 {
  "name": "Sunset View Park",
  "address": "Chula Vista, CA 91915, USA",
  "lat": 32.6331354,
  "lng": -116.9620621
 },
 {
  "name": "Play City",
  "address": "871 Showroom Pl Ste. 105, Chula Vista, CA 91914, USA",
  "lat": 32.6518245,
  "lng": -116.9537742
 },
 {
  "name": "All Seasons Park",
  "address": "1825 Magdalena Ave, Chula Vista, CA 91913, USA",
  "lat": 32.6130587,
  "lng": -116.9753082
 },
 {
  "name": "Greg Rogers Park",
  "address": "Chula Vista, CA 91911, USA",
  "lat": 32.6190709,
  "lng": -117.0341697
 },
 {
  "name": "Tiffany Park",
  "address": "Chula Vista, CA 91913, USA",
  "lat": 32.6465074,
  "lng": -116.9898411
 },
 {
  "name": "Harvest Park",
  "address": "1550 E Palomar St, Chula Vista, CA 91913, USA",
  "lat": 32.6302067,
  "lng": -116.9909219
 },
 {
  "name": "Montevalle Recreation Center",
  "address": "840 Duncan Ranch Rd, Chula Vista, CA 91914, USA",
  "lat": 32.6591274,
  "lng": -116.9521303
 },
 {
  "name": "Jump Around Now",
  "address": "1675 Brandywine Ave, Chula Vista, CA 91911, USA",
  "lat": 32.5968198,
  "lng": -117.0281713
 },
 {
  "name": "Palomar Park",
  "address": "1359 Park Dr, Chula Vista, CA 91911, USA",
  "lat": 32.6126329,
  "lng": -117.0404434
 },
 {
  "name": "Pump It Up",
  "address": "751 Design Ct Ste A, Chula Vista, CA 91911, USA",
  "lat": 32.595753,
  "lng": -117.019837
 },
 {
  "name": "Memorial Park",
  "address": "373 Park Way, Chula Vista, CA 91910, USA",
  "lat": 32.63877290000001,
  "lng": -117.0810631
 },
 {
  "name": "Sunridge Park",
  "address": "852 Gold Oak Ct, Chula Vista, CA 91910, USA",
  "lat": 32.629478,
  "lng": -117.0231344
 },
 {
  "name": "Living Coast Discovery Center",
  "address": "1000 Gunpowder Point Dr, Chula Vista, CA 91910, USA",
  "lat": 32.6401219,
  "lng": -117.1104216
 },
 {
  "name": "Sky Zone Trampoline Park",
  "address": "#100, 851 Showroom Pl Ste 100, Chula Vista, CA 91914, United States",
  "lat": 32.652916,
  "lng": -116.954064
 },
 {
  "name": "Marisol Park",
  "address": "N Rancho Del Rey Pkwy, Chula Vista, CA 91910, USA",
  "lat": 32.648503,
  "lng": -117.0277861
 },
 {
  "name": "Harborside Park",
  "address": "Chula Vista, CA 91911, USA",
  "lat": 32.6062317,
  "lng": -117.0845168
 },
 {
  "name": "San Diego Metro KOA",
  "address": "111 N 2nd Ave, Chula Vista, CA 91910, USA",
  "lat": 32.6566687,
  "lng": -117.0807169
 }
]
