[
 {
  "name": "Mercado Park",
  "address": "925 S D St, Perris, CA 92570, USA",
  "lat": 33.7769908,
  "lng": -117.2281265
 },
 {
  "name": "Metz Park",
  "address": "251 W Metz Rd, Perris, CA 92570, USA",
  "lat": 33.7937631,
  "lng": -117.2320988
 },
 {
  "name": "Monument Ranch Park",
  "address": "163 Monument Pkwy, Perris, CA 92570, USA",
  "lat": 33.7396415,
  "lng": -117.2282944
 },
 {
  "name": "DropZone Waterpark",
  "address": "2165 Trumble Rd, Perris, CA 92570, USA",
  "lat": 33.7635158,
  "lng": -117.1824871
 },
 {
  "name": "Rotary Park",
  "address": "1491 S A St, Perris, CA 92570, USA",
  "lat": 33.7722844,
  "lng": -117.2339674
 },
 {
  "name": "Morgan Park",
  "address": "600 E Morgan St, Perris, CA 92571, USA",
  "lat": 33.8382199,
  "lng": -117.2103559
 },
 {
  "name": "Foss Field Park",
  "address": "138 N Perris Blvd, Perris, CA 92570, USA",
  "lat": 33.7876872,
  "lng": -117.2260408
 },
 {
  "name": "Paragon Park",
  "address": "264 Spectacular Bid St, Perris, CA 92571, USA",
  "lat": 33.8225763,
  "lng": -117.2198019
 },
 {
  "name": "Copper Creek Park",
  "address": "217 Citrus Ave, Perris, CA 92501, USA",
  "lat": 33.8066503,
  "lng": -117.2217112
 },
 {
  "name": "Monument Park",
  "address": "3020 Goetz Rd, Perris, CA 92570, USA",
  "lat": 33.7475237,
  "lng": -117.2240253
 },
 {
  "name": "Foss Field Park",
  "address": "405-499 N Perris Blvd, Perris, CA 92571, USA",
  "lat": 33.7890203,
  "lng": -117.2265508
 }
]
